{"businesses":[{"id":"AdJs_n-p12p_atRt86HtfQ","alias":"honey-coffee-kitchen-tacoma-2","name":"Honey Coffee + Kitchen","image_url":"https://s3-media3.fl.yelpcdn.com/bphoto/jXz74SxllXNC6dalAnEoAA/o.jpg","is_closed":false,"url":"https://www.yelp.com/biz/honey-coffee-kitchen-tacoma-2?adjust_creative=Ws6wP1EcJ9u4dlaKnJFW4Q&utm_campaign=yelp_api_v3&utm_medium=api_v3_business_search&utm_source=Ws6wP1EcJ9u4dlaKnJFW4Q","review_count":20,"categories":[{"alias":"coffee","title":"Coffee & Tea"},{"alias":"seafood","title":"Seafood"}],"rating":4.5,"coordinates":{"latitude":47.2499721716527,"longitude":-122.442478181282},"transactions":[],"location":{"address1":"1322 Fawcett Ave","address2":"","address3":null,"city":"Tacoma","zip_code":"98402","country":"US","state":"WA","display_address":["1322 Fawcett Ave","Tacoma, WA 98402"]},"phone":"","display_phone":"","distance":11972.043258049862},{"id":"AsFgJzxKfFjvxqpLNrV1Gg","alias":"dutch-bros-coffee-federal-way","name":"Dutch Bros Coffee","image_url":"https://s3-media2.fl.yelpcdn.com/bphoto/ilSXW033Sah_jZHRnDCn2A/o.jpg","is_closed":false,"url":"https://www.yelp.com/biz/dutch-bros-coffee-federal-way?adjust_creative=Ws6wP1EcJ9u4dlaKnJFW4Q&utm_campaign=yelp_api_v3&utm_medium=api_v3_business_search&utm_source=Ws6wP1EcJ9u4dlaKnJFW4Q","review_count":13,"categories":[{"alias":"coffee","title":"Coffee & Tea"}],"rating":4,"coordinates":{"latitude":47.35452,"longitude":-122.3119},"transactions":[],"price":"$","location":{"address1":"27525 Pacific Hwy S","address2":"","address3":null,"city":"Federal Way","zip_code":"98003","country":"US","state":"WA","display_address":["27525 Pacific Hwy S","Federal Way, WA 98003"]},"phone":"+15419554700","display_phone":"(541) 955-4700","distance":4646.558726570341},{"id":"NHkgAHDnJeyMdvzC1IC9YA","alias":"urban-luxe-cafe-seattle","name":"Urban Luxe Cafe","image_url":"https://s3-media3.fl.yelpcdn.com/bphoto/Yj2zedY07hzO8botiv2G6Q/o.jpg","is_closed":false,"url":"https://www.yelp.com/biz/urban-luxe-cafe-seattle?adjust_creative=Ws6wP1EcJ9u4dlaKnJFW4Q&utm_campaign=yelp_api_v3&utm_medium=api_v3_business_search&utm_source=Ws6wP1EcJ9u4dlaKnJFW4Q","review_count":27,"categories":[{"alias":"coffee","title":"Coffee & Tea"},{"alias":"mediterranean","title":"Mediterranean"},{"alias":"beer_and_wine","title":"Beer, Wine & Spirits"}],"rating":5,"coordinates":{"latitude":47.67294,"longitude":-122.31774},"transactions":[],"price":"$$","location":{"address1":"6105 Roosevelt Way NE","address2":"Ste A","address3":"","city":"Seattle","zip_code":"98115","country":"US","state":"WA","display_address":["6105 Roosevelt Way NE","Ste A","Seattle, WA 98115"]},"phone":"+12069001056","display_phone":"(206) 900-1056","distance":40054.01756233314},{"id":"C_NZnvxKuOsqsAXwIaxC2g","alias":"trio-cafe-bellevue","name":"Trio Cafe","image_url":"https://s3-media2.fl.yelpcdn.com/bphoto/DGOexWxmmpV7fjjJ-Xd0_g/o.jpg","is_closed":false,"url":"https://www.yelp.com/biz/trio-cafe-bellevue?adjust_creative=Ws6wP1EcJ9u4dlaKnJFW4Q&utm_campaign=yelp_api_v3&utm_medium=api_v3_business_search&utm_source=Ws6wP1EcJ9u4dlaKnJFW4Q","review_count":35,"categories":[{"alias":"bubbletea","title":"Bubble Tea"},{"alias":"coffee","title":"Coffee & Tea"},{"alias":"desserts","title":"Desserts"}],"rating":4,"coordinates":{"latitude":47.61181,"longitude":-122.1983},"transactions":["pickup","delivery"],"price":"$","location":{"address1":"10617 NE 2nd St","address2":null,"address3":"","city":"Bellevue","zip_code":"98004","country":"US","state":"WA","display_address":["10617 NE 2nd St","Bellevue, WA 98004"]},"phone":"+14256796532","display_phone":"(425) 679-6532","distance":34375.51920387322},{"id":"n3BWao_zE14CiuT78zpR8A","alias":"general-porpoise-seattle-3","name":"General Porpoise","image_url":"https://s3-media1.fl.yelpcdn.com/bphoto/4-Y3gO3xA38kAjjFqntxSw/o.jpg","is_closed":false,"url":"https://www.yelp.com/biz/general-porpoise-seattle-3?adjust_creative=Ws6wP1EcJ9u4dlaKnJFW4Q&utm_campaign=yelp_api_v3&utm_medium=api_v3_business_search&utm_source=Ws6wP1EcJ9u4dlaKnJFW4Q","review_count":26,"categories":[{"alias":"donuts","title":"Donuts"},{"alias":"coffee","title":"Coffee & Tea"}],"rating":3.5,"coordinates":{"latitude":47.59903,"longitude":-122.33449},"transactions":[],"price":"$$","location":{"address1":"401 1st Ave S","address2":"","address3":null,"city":"Seattle","zip_code":"98104","country":"US","state":"WA","display_address":["401 1st Ave S","Seattle, WA 98104"]},"phone":"+12069000965","display_phone":"(206) 900-0965","distance":31868.375963845396},{"id":"2QljDWNMZ-XmTdWeeVLpXA","alias":"intrigue-chocolate-and-coffeehouse-seattle-2","name":"Intrigue Chocolate & Coffeehouse","image_url":"https://s3-media2.fl.yelpcdn.com/bphoto/0CSoZzZjpc3v31UFkPp28Q/o.jpg","is_closed":false,"url":"https://www.yelp.com/biz/intrigue-chocolate-and-coffeehouse-seattle-2?adjust_creative=Ws6wP1EcJ9u4dlaKnJFW4Q&utm_campaign=yelp_api_v3&utm_medium=api_v3_business_search&utm_source=Ws6wP1EcJ9u4dlaKnJFW4Q","review_count":8,"categories":[{"alias":"chocolate","title":"Chocolatiers & Shops"},{"alias":"coffee","title":"Coffee & Tea"}],"rating":5,"coordinates":{"latitude":47.6148903654324,"longitude":-122.312635704875},"transactions":[],"price":"$$","location":{"address1":"1520 15th Ave","address2":"","address3":null,"city":"Seattle","zip_code":"98122","country":"US","state":"WA","display_address":["1520 15th Ave","Seattle, WA 98122"]},"phone":"+12069453277","display_phone":"(206) 945-3277","distance":33596.819594004446},{"id":"awf4zt-azTNVk666fM7PGg","alias":"olympia-coffee-tacoma","name":"Olympia Coffee","image_url":"https://s3-media1.fl.yelpcdn.com/bphoto/ad-f8WwNHZxFgXG2DBff1Q/o.jpg","is_closed":false,"url":"https://www.yelp.com/biz/olympia-coffee-tacoma?adjust_creative=Ws6wP1EcJ9u4dlaKnJFW4Q&utm_campaign=yelp_api_v3&utm_medium=api_v3_business_search&utm_source=Ws6wP1EcJ9u4dlaKnJFW4Q","review_count":8,"categories":[{"alias":"coffee","title":"Coffee & Tea"}],"rating":4,"coordinates":{"latitude":47.271185,"longitude":-122.488686},"transactions":[],"price":"$$","location":{"address1":"2601 N Proctor St","address2":"","address3":null,"city":"Tacoma","zip_code":"98407","country":"US","state":"WA","display_address":["2601 N Proctor St","Tacoma, WA 98407"]},"phone":"","display_phone":"","distance":13994.671600534119},{"id":"FXh2yiw3VkJZkl2J7mddQA","alias":"mr-saigon-seattle-3","name":"MR SAIGON","image_url":"https://s3-media1.fl.yelpcdn.com/bphoto/LbMJulKu1vffuTD2aTclHA/o.jpg","is_closed":false,"url":"https://www.yelp.com/biz/mr-saigon-seattle-3?adjust_creative=Ws6wP1EcJ9u4dlaKnJFW4Q&utm_campaign=yelp_api_v3&utm_medium=api_v3_business_search&utm_source=Ws6wP1EcJ9u4dlaKnJFW4Q","review_count":14,"categories":[{"alias":"vietnamese","title":"Vietnamese"},{"alias":"sandwiches","title":"Sandwiches"},{"alias":"coffee","title":"Coffee & Tea"}],"rating":4.5,"coordinates":{"latitude":47.60908,"longitude":-122.31645},"transactions":[],"price":"$","location":{"address1":"734 12th Ave","address2":"","address3":null,"city":"Seattle","zip_code":"98122","country":"US","state":"WA","display_address":["734 12th Ave","Seattle, WA 98122"]},"phone":"+12063258700","display_phone":"(206) 325-8700","distance":32952.50037076931},{"id":"DfANPRxZ0cDZKeTMe-Dw5g","alias":"timber-monster-brewing-company-sultan","name":"Timber Monster Brewing Company","image_url":"https://s3-media1.fl.yelpcdn.com/bphoto/bEYtSLoxkJ2Ws9_Kehg8wQ/o.jpg","is_closed":false,"url":"https://www.yelp.com/biz/timber-monster-brewing-company-sultan?adjust_creative=Ws6wP1EcJ9u4dlaKnJFW4Q&utm_campaign=yelp_api_v3&utm_medium=api_v3_business_search&utm_source=Ws6wP1EcJ9u4dlaKnJFW4Q","review_count":21,"categories":[{"alias":"tradamerican","title":"American (Traditional)"},{"alias":"breweries","title":"Breweries"},{"alias":"coffee","title":"Coffee & Tea"}],"rating":4,"coordinates":{"latitude":47.8621336491527,"longitude":-121.815578788519},"transactions":[],"price":"$$","location":{"address1":"410 Main St","address2":"","address3":null,"city":"Sultan","zip_code":"98294","country":"US","state":"WA","display_address":["410 Main St","Sultan, WA 98294"]},"phone":"+13602433159","display_phone":"(360) 243-3159","distance":71599.43678256121},{"id":"3cLNDJ2vI29LWNvU7vVIuQ","alias":"capital-one-café-bellevue-2","name":"Capital One Café","image_url":"https://s3-media1.fl.yelpcdn.com/bphoto/qr3cYvZv_1uNeXQ4LgiduA/o.jpg","is_closed":false,"url":"https://www.yelp.com/biz/capital-one-caf%C3%A9-bellevue-2?adjust_creative=Ws6wP1EcJ9u4dlaKnJFW4Q&utm_campaign=yelp_api_v3&utm_medium=api_v3_business_search&utm_source=Ws6wP1EcJ9u4dlaKnJFW4Q","review_count":5,"categories":[{"alias":"banks","title":"Banks & Credit Unions"},{"alias":"coffee","title":"Coffee & Tea"}],"rating":4.5,"coordinates":{"latitude":47.6141192,"longitude":-122.2012926},"transactions":[],"location":{"address1":"400 Bellevue Way NE","address2":"","address3":null,"city":"Bellevue","zip_code":"98004","country":"US","state":"WA","display_address":["400 Bellevue Way NE","Bellevue, WA 98004"]},"phone":"+14253720250","display_phone":"(425) 372-0250","distance":34556.98949061157},{"id":"r9YZACaKfOp4OQ0nMh0Yxw","alias":"banh-mi-bites-mountlake-terrace-2","name":"Banh Mi Bites","image_url":"https://s3-media4.fl.yelpcdn.com/bphoto/DkWNhoZjGWcpiaX5_HiL7Q/o.jpg","is_closed":false,"url":"https://www.yelp.com/biz/banh-mi-bites-mountlake-terrace-2?adjust_creative=Ws6wP1EcJ9u4dlaKnJFW4Q&utm_campaign=yelp_api_v3&utm_medium=api_v3_business_search&utm_source=Ws6wP1EcJ9u4dlaKnJFW4Q","review_count":15,"categories":[{"alias":"vietnamese","title":"Vietnamese"},{"alias":"sandwiches","title":"Sandwiches"},{"alias":"coffee","title":"Coffee & Tea"}],"rating":3.5,"coordinates":{"latitude":47.78439,"longitude":-122.30776},"transactions":[],"price":"$","location":{"address1":"23601 56th Ave W","address2":"Ste 600","address3":null,"city":"Mountlake Terrace","zip_code":"98043","country":"US","state":"WA","display_address":["23601 56th Ave W","Ste 600","Mountlake Terrace, WA 98043"]},"phone":"+14255822243","display_phone":"(425) 582-2243","distance":52466.7682368692},{"id":"d3-ev4K-Mai3AI1XBkmu1Q","alias":"da-dessert-lynnwood-3","name":"Da Dessert","image_url":"https://s3-media3.fl.yelpcdn.com/bphoto/PufoRmJYyjnKIsWsQZeogw/o.jpg","is_closed":false,"url":"https://www.yelp.com/biz/da-dessert-lynnwood-3?adjust_creative=Ws6wP1EcJ9u4dlaKnJFW4Q&utm_campaign=yelp_api_v3&utm_medium=api_v3_business_search&utm_source=Ws6wP1EcJ9u4dlaKnJFW4Q","review_count":18,"categories":[{"alias":"coffee","title":"Coffee & Tea"},{"alias":"desserts","title":"Desserts"}],"rating":4,"coordinates":{"latitude":47.83311,"longitude":-122.27931},"transactions":[],"price":"$$$","location":{"address1":"3333 184th St SW","address2":"Ste X","address3":"","city":"Lynnwood","zip_code":"98037","country":"US","state":"WA","display_address":["3333 184th St SW","Ste X","Lynnwood, WA 98037"]},"phone":"+14255828699","display_phone":"(425) 582-8699","distance":57937.28714021851},{"id":"BJKNxAXGHhIDFylTtDQ-eA","alias":"top-pot-doughnuts-edmonds","name":"Top Pot Doughnuts","image_url":"https://s3-media1.fl.yelpcdn.com/bphoto/1n9ZHlFNvbKdN2ObUDS3zw/o.jpg","is_closed":false,"url":"https://www.yelp.com/biz/top-pot-doughnuts-edmonds?adjust_creative=Ws6wP1EcJ9u4dlaKnJFW4Q&utm_campaign=yelp_api_v3&utm_medium=api_v3_business_search&utm_source=Ws6wP1EcJ9u4dlaKnJFW4Q","review_count":12,"categories":[{"alias":"coffee","title":"Coffee & Tea"},{"alias":"donuts","title":"Donuts"}],"rating":3.5,"coordinates":{"latitude":47.811346,"longitude":-122.383219},"transactions":[],"price":"$$","location":{"address1":"150 Sunset Ave","address2":"","address3":null,"city":"Edmonds","zip_code":"98020","country":"US","state":"WA","display_address":["150 Sunset Ave","Edmonds, WA 98020"]},"phone":"+14255822579","display_phone":"(425) 582-2579","distance":55687.57758856604}],"total":13,"region":{"center":{"longitude":-122.31353759765625,"latitude":47.31274718802914}}}