{"businesses":[{"id":"FXh2yiw3VkJZkl2J7mddQA","alias":"mr-saigon-banh-mi-seattle-2","name":"Mr Saigon Banh Mi","image_url":"https://s3-media4.fl.yelpcdn.com/bphoto/OevikhWk7JiTLDUgGwUksg/o.jpg","is_closed":false,"url":"https://www.yelp.com/biz/mr-saigon-banh-mi-seattle-2?adjust_creative=Ws6wP1EcJ9u4dlaKnJFW4Q&utm_campaign=yelp_api_v3&utm_medium=api_v3_business_search&utm_source=Ws6wP1EcJ9u4dlaKnJFW4Q","review_count":18,"categories":[{"alias":"vietnamese","title":"Vietnamese"},{"alias":"coffee","title":"Coffee & Tea"},{"alias":"breakfast_brunch","title":"Breakfast & Brunch"}],"rating":4.5,"coordinates":{"latitude":47.60908,"longitude":-122.31645},"transactions":[],"price":"$","location":{"address1":"734 12th Ave","address2":null,"address3":null,"city":"Seattle","zip_code":"98122","country":"US","state":"WA","display_address":["734 12th Ave","Seattle, WA 98122"]},"phone":"+12063258700","display_phone":"(206) 325-8700","distance":14489.049972801255},{"id":"C_NZnvxKuOsqsAXwIaxC2g","alias":"trio-cafe-bellevue","name":"Trio Cafe","image_url":"https://s3-media2.fl.yelpcdn.com/bphoto/DGOexWxmmpV7fjjJ-Xd0_g/o.jpg","is_closed":false,"url":"https://www.yelp.com/biz/trio-cafe-bellevue?adjust_creative=Ws6wP1EcJ9u4dlaKnJFW4Q&utm_campaign=yelp_api_v3&utm_medium=api_v3_business_search&utm_source=Ws6wP1EcJ9u4dlaKnJFW4Q","review_count":45,"categories":[{"alias":"bubbletea","title":"Bubble Tea"},{"alias":"coffee","title":"Coffee & Tea"},{"alias":"desserts","title":"Desserts"}],"rating":4,"coordinates":{"latitude":47.61181,"longitude":-122.1983},"transactions":["pickup","delivery"],"price":"$","location":{"address1":"10617 NE 2nd St","address2":null,"address3":"","city":"Bellevue","zip_code":"98004","country":"US","state":"WA","display_address":["10617 NE 2nd St","Bellevue, WA 98004"]},"phone":"+14256796532","display_phone":"(425) 679-6532","distance":17848.399914447262},{"id":"r9YZACaKfOp4OQ0nMh0Yxw","alias":"banh-mi-bites-mountlake-terrace-2","name":"Banh Mi Bites","image_url":"https://s3-media4.fl.yelpcdn.com/bphoto/DkWNhoZjGWcpiaX5_HiL7Q/o.jpg","is_closed":false,"url":"https://www.yelp.com/biz/banh-mi-bites-mountlake-terrace-2?adjust_creative=Ws6wP1EcJ9u4dlaKnJFW4Q&utm_campaign=yelp_api_v3&utm_medium=api_v3_business_search&utm_source=Ws6wP1EcJ9u4dlaKnJFW4Q","review_count":15,"categories":[{"alias":"vietnamese","title":"Vietnamese"},{"alias":"sandwiches","title":"Sandwiches"},{"alias":"coffee","title":"Coffee & Tea"}],"rating":3.5,"coordinates":{"latitude":47.78439,"longitude":-122.30776},"transactions":[],"price":"$","location":{"address1":"23601 56th Ave W","address2":"Ste 600","address3":null,"city":"Mountlake Terrace","zip_code":"98043","country":"US","state":"WA","display_address":["23601 56th Ave W","Ste 600","Mountlake Terrace, WA 98043"]},"phone":"+14255822243","display_phone":"(425) 582-2243","distance":5928.970680259192},{"id":"d3-ev4K-Mai3AI1XBkmu1Q","alias":"da-dessert-lynnwood-3","name":"Da Dessert","image_url":"https://s3-media3.fl.yelpcdn.com/bphoto/PufoRmJYyjnKIsWsQZeogw/o.jpg","is_closed":false,"url":"https://www.yelp.com/biz/da-dessert-lynnwood-3?adjust_creative=Ws6wP1EcJ9u4dlaKnJFW4Q&utm_campaign=yelp_api_v3&utm_medium=api_v3_business_search&utm_source=Ws6wP1EcJ9u4dlaKnJFW4Q","review_count":30,"categories":[{"alias":"coffee","title":"Coffee & Tea"},{"alias":"desserts","title":"Desserts"}],"rating":4,"coordinates":{"latitude":47.83311,"longitude":-122.27931},"transactions":[],"price":"$","location":{"address1":"3333 184th St SW","address2":"Ste X","address3":"","city":"Lynnwood","zip_code":"98037","country":"US","state":"WA","display_address":["3333 184th St SW","Ste X","Lynnwood, WA 98037"]},"phone":"+14255828699","display_phone":"(425) 582-8699","distance":11720.870194173589},{"id":"Jtmxge2f2qVi_wvi5ODGxQ","alias":"ding-tea-seattle-seattle","name":"Ding Tea Seattle","image_url":"https://s3-media2.fl.yelpcdn.com/bphoto/y87dOrhOKznBBeI01QepjA/o.jpg","is_closed":false,"url":"https://www.yelp.com/biz/ding-tea-seattle-seattle?adjust_creative=Ws6wP1EcJ9u4dlaKnJFW4Q&utm_campaign=yelp_api_v3&utm_medium=api_v3_business_search&utm_source=Ws6wP1EcJ9u4dlaKnJFW4Q","review_count":18,"categories":[{"alias":"bubbletea","title":"Bubble Tea"},{"alias":"coffee","title":"Coffee & Tea"}],"rating":4,"coordinates":{"latitude":47.66386,"longitude":-122.31339},"transactions":[],"price":"$","location":{"address1":"4725 University Way NE","address2":"","address3":null,"city":"Seattle","zip_code":"98105","country":"US","state":"WA","display_address":["4725 University Way NE","Seattle, WA 98105"]},"phone":"+12064567192","display_phone":"(206) 456-7192","distance":8581.447594854319},{"id":"3cLNDJ2vI29LWNvU7vVIuQ","alias":"capital-one-café-bellevue-2","name":"Capital One Café","image_url":"https://s3-media3.fl.yelpcdn.com/bphoto/n_KHKTqBXKxS2_otpAcJQA/o.jpg","is_closed":false,"url":"https://www.yelp.com/biz/capital-one-caf%C3%A9-bellevue-2?adjust_creative=Ws6wP1EcJ9u4dlaKnJFW4Q&utm_campaign=yelp_api_v3&utm_medium=api_v3_business_search&utm_source=Ws6wP1EcJ9u4dlaKnJFW4Q","review_count":9,"categories":[{"alias":"banks","title":"Banks & Credit Unions"},{"alias":"coffee","title":"Coffee & Tea"}],"rating":4,"coordinates":{"latitude":47.6141192,"longitude":-122.2012926},"transactions":[],"location":{"address1":"400 Bellevue Way NE","address2":"","address3":null,"city":"Bellevue","zip_code":"98004","country":"US","state":"WA","display_address":["400 Bellevue Way NE","Bellevue, WA 98004"]},"phone":"+14253720250","display_phone":"(425) 372-0250","distance":17506.834721877065},{"id":"ywYXmtloiGAis0kwrL4PUw","alias":"raised-doughnuts-seattle","name":"Raised Doughnuts","image_url":"https://s3-media4.fl.yelpcdn.com/bphoto/j8WuTiHHfne19ZSncA3Okw/o.jpg","is_closed":false,"url":"https://www.yelp.com/biz/raised-doughnuts-seattle?adjust_creative=Ws6wP1EcJ9u4dlaKnJFW4Q&utm_campaign=yelp_api_v3&utm_medium=api_v3_business_search&utm_source=Ws6wP1EcJ9u4dlaKnJFW4Q","review_count":2,"categories":[{"alias":"donuts","title":"Donuts"},{"alias":"bakeries","title":"Bakeries"},{"alias":"coffee","title":"Coffee & Tea"}],"rating":5,"coordinates":{"latitude":47.61168,"longitude":-122.30301},"transactions":[],"price":"$","location":{"address1":"1101 23rd Ave","address2":"","address3":null,"city":"Seattle","zip_code":"98122","country":"US","state":"WA","display_address":["1101 23rd Ave","Seattle, WA 98122"]},"phone":"","display_phone":"","distance":14393.537163809378}],"total":7,"region":{"center":{"longitude":-122.34580993652344,"latitude":47.737891949497026}}}