{"businesses":[{"id":"AsFgJzxKfFjvxqpLNrV1Gg","alias":"dutch-bros-coffee-federal-way","name":"Dutch Bros Coffee","image_url":"https://s3-media2.fl.yelpcdn.com/bphoto/ilSXW033Sah_jZHRnDCn2A/o.jpg","is_closed":false,"url":"https://www.yelp.com/biz/dutch-bros-coffee-federal-way?adjust_creative=Ws6wP1EcJ9u4dlaKnJFW4Q&utm_campaign=yelp_api_v3&utm_medium=api_v3_business_search&utm_source=Ws6wP1EcJ9u4dlaKnJFW4Q","review_count":16,"categories":[{"alias":"coffee","title":"Coffee & Tea"}],"rating":4.5,"coordinates":{"latitude":47.35452,"longitude":-122.3119},"transactions":[],"price":"$","location":{"address1":"27525 Pacific Hwy S","address2":"","address3":null,"city":"Federal Way","zip_code":"98003","country":"US","state":"WA","display_address":["27525 Pacific Hwy S","Federal Way, WA 98003"]},"phone":"+15419554700","display_phone":"(541) 955-4700","distance":4646.558726570341},{"id":"AdJs_n-p12p_atRt86HtfQ","alias":"honey-coffee-kitchen-tacoma-2","name":"Honey Coffee + Kitchen","image_url":"https://s3-media3.fl.yelpcdn.com/bphoto/quZQfbQBeBp92K5ZlueGuA/o.jpg","is_closed":false,"url":"https://www.yelp.com/biz/honey-coffee-kitchen-tacoma-2?adjust_creative=Ws6wP1EcJ9u4dlaKnJFW4Q&utm_campaign=yelp_api_v3&utm_medium=api_v3_business_search&utm_source=Ws6wP1EcJ9u4dlaKnJFW4Q","review_count":30,"categories":[{"alias":"coffee","title":"Coffee & Tea"},{"alias":"seafood","title":"Seafood"}],"rating":4.5,"coordinates":{"latitude":47.2499721716527,"longitude":-122.442478181282},"transactions":[],"location":{"address1":"1322 Fawcett Ave","address2":"","address3":null,"city":"Tacoma","zip_code":"98402","country":"US","state":"WA","display_address":["1322 Fawcett Ave","Tacoma, WA 98402"]},"phone":"","display_phone":"","distance":11972.043258049862},{"id":"awf4zt-azTNVk666fM7PGg","alias":"olympia-coffee-tacoma","name":"Olympia Coffee","image_url":"https://s3-media1.fl.yelpcdn.com/bphoto/J2-iWuFrUEqum9jsD9rhgA/o.jpg","is_closed":false,"url":"https://www.yelp.com/biz/olympia-coffee-tacoma?adjust_creative=Ws6wP1EcJ9u4dlaKnJFW4Q&utm_campaign=yelp_api_v3&utm_medium=api_v3_business_search&utm_source=Ws6wP1EcJ9u4dlaKnJFW4Q","review_count":12,"categories":[{"alias":"coffee","title":"Coffee & Tea"}],"rating":4,"coordinates":{"latitude":47.271185,"longitude":-122.488686},"transactions":[],"price":"$$","location":{"address1":"2601 N Proctor St","address2":"","address3":null,"city":"Tacoma","zip_code":"98407","country":"US","state":"WA","display_address":["2601 N Proctor St","Tacoma, WA 98407"]},"phone":"","display_phone":"","distance":13994.671600534119},{"id":"X8mWrCKv-8fdB1tcUP7H8Q","alias":"tea-time-tukwila-2","name":"Tea Time","image_url":"https://s3-media3.fl.yelpcdn.com/bphoto/JJ4JTjt7OikPJqfItdWOhQ/o.jpg","is_closed":false,"url":"https://www.yelp.com/biz/tea-time-tukwila-2?adjust_creative=Ws6wP1EcJ9u4dlaKnJFW4Q&utm_campaign=yelp_api_v3&utm_medium=api_v3_business_search&utm_source=Ws6wP1EcJ9u4dlaKnJFW4Q","review_count":40,"categories":[{"alias":"coffee","title":"Coffee & Tea"}],"rating":4,"coordinates":{"latitude":47.452125,"longitude":-122.2623251},"transactions":[],"price":"$$","location":{"address1":"16854 Southcenter Pkwy","address2":null,"address3":"","city":"Tukwila","zip_code":"98188","country":"US","state":"WA","display_address":["16854 Southcenter Pkwy","Tukwila, WA 98188"]},"phone":"+12532368077","display_phone":"(253) 236-8077","distance":16022.536352669875},{"id":"kW_8YaqnNm1t2XKMZLJ_1g","alias":"cafe-may-hong-seattle","name":"Cafe May Hong","image_url":"","is_closed":false,"url":"https://www.yelp.com/biz/cafe-may-hong-seattle?adjust_creative=Ws6wP1EcJ9u4dlaKnJFW4Q&utm_campaign=yelp_api_v3&utm_medium=api_v3_business_search&utm_source=Ws6wP1EcJ9u4dlaKnJFW4Q","review_count":2,"categories":[{"alias":"coffee","title":"Coffee & Tea"}],"rating":4.5,"coordinates":{"latitude":47.5102678251741,"longitude":-122.35430364704},"transactions":[],"location":{"address1":"10422 16th Ave Sw","address2":"","address3":null,"city":"Seattle","zip_code":"98146","country":"US","state":"WA","display_address":["10422 16th Ave Sw","Seattle, WA 98146"]},"phone":"+12066197666","display_phone":"(206) 619-7666","distance":22176.4565603282},{"id":"jGGkxvFxVayFZEXYWGem-g","alias":"t-town-cafe-tacoma","name":"T-Town Cafe","image_url":"https://s3-media4.fl.yelpcdn.com/bphoto/1BV-M1ZddsUwCrZuQa5b4A/o.jpg","is_closed":false,"url":"https://www.yelp.com/biz/t-town-cafe-tacoma?adjust_creative=Ws6wP1EcJ9u4dlaKnJFW4Q&utm_campaign=yelp_api_v3&utm_medium=api_v3_business_search&utm_source=Ws6wP1EcJ9u4dlaKnJFW4Q","review_count":3,"categories":[{"alias":"desserts","title":"Desserts"},{"alias":"coffee","title":"Coffee & Tea"},{"alias":"sandwiches","title":"Sandwiches"}],"rating":4.5,"coordinates":{"latitude":47.1798674050177,"longitude":-122.483482390083},"transactions":[],"location":{"address1":"8515 S Tacoma Way","address2":"","address3":null,"city":"Tacoma","zip_code":"98499","country":"US","state":"WA","display_address":["8515 S Tacoma Way","Tacoma, WA 98499"]},"phone":"+12535841524","display_phone":"(253) 584-1524","distance":19567.277451763417},{"id":"Y8QNk3IJZ-v1SLqu68Z4wg","alias":"bostwick-cafe-tacoma","name":"Bostwick Cafe","image_url":"","is_closed":false,"url":"https://www.yelp.com/biz/bostwick-cafe-tacoma?adjust_creative=Ws6wP1EcJ9u4dlaKnJFW4Q&utm_campaign=yelp_api_v3&utm_medium=api_v3_business_search&utm_source=Ws6wP1EcJ9u4dlaKnJFW4Q","review_count":2,"categories":[{"alias":"coffee","title":"Coffee & Tea"}],"rating":4.5,"coordinates":{"latitude":47.2557,"longitude":-122.44092},"transactions":[],"location":{"address1":"764 Broadway","address2":"","address3":null,"city":"Tacoma","zip_code":"98402","country":"US","state":"WA","display_address":["764 Broadway","Tacoma, WA 98402"]},"phone":"+12532921569","display_phone":"(253) 292-1569","distance":11506.999747375321},{"id":"S-xvZZK7-1TVN670DMIDsA","alias":"cypress-coffee-bellevue","name":"Cypress Coffee","image_url":"https://s3-media4.fl.yelpcdn.com/bphoto/W0nZiDaPF5QguRw2w78MAQ/o.jpg","is_closed":false,"url":"https://www.yelp.com/biz/cypress-coffee-bellevue?adjust_creative=Ws6wP1EcJ9u4dlaKnJFW4Q&utm_campaign=yelp_api_v3&utm_medium=api_v3_business_search&utm_source=Ws6wP1EcJ9u4dlaKnJFW4Q","review_count":5,"categories":[{"alias":"coffee","title":"Coffee & Tea"}],"rating":5,"coordinates":{"latitude":47.58198,"longitude":-122.14017},"transactions":[],"location":{"address1":"3080 148th Ave Se","address2":"Ste 113","address3":null,"city":"Bellevue","zip_code":"98007","country":"US","state":"WA","display_address":["3080 148th Ave Se","Ste 113","Bellevue, WA 98007"]},"phone":"+14254296167","display_phone":"(425) 429-6167","distance":32611.692527649477}],"total":8,"region":{"center":{"longitude":-122.31353759765625,"latitude":47.31274718802914}}}